[
{
        "node_id": "ND-007",
        "lng": "122.06271",
        "lat": "6.91305",
        "is_active": true,
        "related_room_id": "",
        "indoor": null,
        "type": "infrastructure",
        "name": "CSM Social Hall",
        "created_at": "2025-09-03T15:18:11.234Z",
        "related_infra_id": "INFA-25",
        "campus_id": "CAMP-02",
        "id": "0QWxbR6AWf1MoXa6ZCsF"
    },
{
        "node_id": "ND-018",
        "lng": "122.06345",
        "lat": "6.91273",
        "is_active": true,
        "related_room_id": "",
        "indoor": null,
        "type": "infrastructure",
        "name": "MSA",
        "created_at": "2025-09-03T15:25:55.998Z",
        "related_infra_id": "INFA-15",
        "campus_id": "CAMP-02",
        "id": "22BqCrikujg2iyCZgXNl"
    },
{
        "node_id": "ND-022",
        "lng": "122.06338",
        "lat": "6.91318",
        "is_active": true,
        "related_room_id": "",
        "indoor": null,
        "type": "infrastructure",
        "name": "Garments ",
        "created_at": "2025-09-03T15:27:46.644Z",
        "related_infra_id": "INFA-19",
        "campus_id": "CAMP-02",
        "id": "6oqNZOq1Z0fdjb9GoOY8"
    },
{
        "node_id": "ND-012",
        "lng": "122.06283",
        "lat": "6.91282",
        "is_active": true,
        "related_room_id": "",
        "indoor": null,
        "type": "infrastructure",
        "name": "Biorisk Management Office",
        "created_at": "2025-09-03T15:21:19.648Z",
        "related_infra_id": "INFA-09",
        "campus_id": "CAMP-02",
        "id": "6zywTJq1rziqqhJp35o2"
    },
{
        "node_id": "ND-029",
        "lng": "122.06390",
        "lat": "6.91322",
        "is_active": true,
        "related_room_id": "",
        "indoor": null,
        "type": "barrier",
        "name": "Barrier",
        "created_at": "2025-09-03T15:38:35.906Z",
        "related_infra_id": "INFA-30",
        "campus_id": "CAMP-02",
        "id": "8dEaXUWMvDCrCtLIk7yR"
    },
{
        "node_id": "ND-004",
        "lng": "122.06231",
        "lat": "6.91305",
        "is_active": true,
        "related_room_id": "",
        "indoor": null,
        "type": "infrastructure",
        "name": "Canteen",
        "created_at": "2025-09-03T15:16:43.083Z",
        "related_infra_id": "INFA-02",
        "campus_id": "CAMP-02",
        "id": "9KU8H5amdjSXFUH2iPjv"
    },
{
        "node_id": "ND-008",
        "lng": "122.06268",
        "lat": "6.91286",
        "is_active": true,
        "related_room_id": "",
        "indoor": null,
        "type": "infrastructure",
        "name": "Department of Biological Sciences",
        "created_at": "2025-09-03T15:18:34.767Z",
        "related_infra_id": "INFA-05",
        "campus_id": "CAMP-02",
        "id": "BoyKVD4RZCxMuwah8Up3"
    },
{
        "node_id": "ND-020",
        "lng": "122.06362",
        "lat": "6.91288",
        "is_active": true,
        "related_room_id": "",
        "indoor": null,
        "type": "infrastructure",
        "name": "Old building Campus B",
        "created_at": "2025-09-03T15:27:04.094Z",
        "related_infra_id": "INFA-17",
        "campus_id": "CAMP-02",
        "id": "DTL1Z9CbDFnVpsLlHMQS"
    },
{
        "node_id": "ND-021",
        "lng": "122.06349",
        "lat": "6.91300",
        "is_active": true,
        "related_room_id": "",
        "indoor": null,
        "type": "infrastructure",
        "name": "College of Medicine",
        "created_at": "2025-09-03T15:27:26.528Z",
        "related_infra_id": "INFA-18",
        "campus_id": "CAMP-02",
        "id": "KIwjW43MuDJMdgbtG4Gq"
    },
{
        "node_id": "ND-003",
        "lng": "122.0623933",
        "lat": "6.9131681",
        "is_active": true,
        "related_room_id": "",
        "indoor": null,
        "type": "infrastructure",
        "name": "Overpass",
        "created_at": "2025-09-03T15:16:02.907Z",
        "related_infra_id": "INFA-26",
        "campus_id": "CAMP-02",
        "id": "KbGdTBv5wJya3eba1U0o"
    },
{
        "node_id": "ND-025",
        "lng": "122.06349",
        "lat": "6.91339",
        "is_active": true,
        "related_room_id": "",
        "indoor": null,
        "type": "infrastructure",
        "name": "Gate Camp B for employees ",
        "created_at": "2025-09-03T15:29:25.689Z",
        "related_infra_id": "INFA-23",
        "campus_id": "CAMP-02",
        "id": "No0u3VHnnLJjagZzlllc"
    },
{
        "node_id": "ND-006",
        "lng": "122.06263",
        "lat": "6.91307",
        "is_active": true,
        "related_room_id": "",
        "indoor": null,
        "type": "infrastructure",
        "name": "CSM LOBBY",
        "created_at": "2025-09-03T15:17:47.022Z",
        "related_infra_id": "INFA-04",
        "campus_id": "CAMP-02",
        "id": "OiyV4F7VYrBcMyb2icVB"
    },
{
        "node_id": "ND-015",
        "lng": "122.0631470",
        "lat": "6.9124228",
        "is_active": true,
        "related_room_id": "",
        "indoor": null,
        "type": "infrastructure",
        "name": "College of Asian Islamic Studies",
        "created_at": "2025-09-03T15:23:35.569Z",
        "related_infra_id": "INFA-12",
        "campus_id": "CAMP-02",
        "id": "PspTWpklXLKjh7WA0v2h"
    },
{
        "node_id": "ND-009",
        "lng": "122.06270",
        "lat": "6.91289",
        "is_active": true,
        "related_room_id": "",
        "indoor": null,
        "type": "infrastructure",
        "name": "Fernery",
        "created_at": "2025-09-03T15:19:12.713Z",
        "related_infra_id": "INFA-06",
        "campus_id": "CAMP-02",
        "id": "SFKRlrqbNUbDraGDKmSJ"
    },
{
        "node_id": "ND-016",
        "lng": "122.06335",
        "lat": "6.91230",
        "is_active": true,
        "related_room_id": "",
        "indoor": null,
        "type": "infrastructure",
        "name": "College of Social Work and Community Development",
        "created_at": "2025-09-03T15:24:47.145Z",
        "related_infra_id": "INFA-13",
        "campus_id": "CAMP-02",
        "id": "WHYkl1u2NnlfdxLkjjDv"
    },
{
        "node_id": "ND-001",
        "lng": "122.06258",
        "lat": "6.91330",
        "is_active": true,
        "related_room_id": "",
        "indoor": null,
        "type": "infrastructure",
        "name": "Gate Campus B",
        "created_at": "2025-09-03T15:11:24.822Z",
        "related_infra_id": "INFA-01",
        "campus_id": "CAMP-02",
        "id": "Z3IlNT12BG97SF7oV0xq"
    },
{
        "node_id": "ND-005",
        "lng": "122.06251",
        "lat": "6.91301",
        "is_active": true,
        "related_room_id": "",
        "indoor": null,
        "type": "infrastructure",
        "name": "College of Sciences and Mathematics",
        "created_at": "2025-09-03T15:17:12.707Z",
        "related_infra_id": "INFA-03",
        "campus_id": "CAMP-02",
        "id": "ZW1UnEtm5qlZBYKv4Zh4"
    },
{
        "node_id": "ND-017",
        "lng": "122.06359",
        "lat": "6.91261",
        "is_active": true,
        "related_room_id": "",
        "indoor": null,
        "type": "infrastructure",
        "name": "College of Computing Studies",
        "created_at": "2025-09-03T15:25:36.018Z",
        "related_infra_id": "INFA-14",
        "campus_id": "CAMP-02",
        "id": "cFZKtzwLGDB7IU5TVOKa"
    },
{
        "node_id": "ND-002",
        "lng": "122.06251",
        "lat": "6.91308",
        "is_active": true,
        "related_room_id": "",
        "indoor": null,
        "type": "infrastructure",
        "name": "Park",
        "created_at": "2025-09-03T15:15:08.024Z",
        "related_infra_id": "INFA-24",
        "campus_id": "CAMP-02",
        "id": "gxFEdRi2Iqv9MmAV7v0i"
    },
{
        "node_id": "ND-024",
        "lng": "122.06338",
        "lat": "6.91318",
        "is_active": true,
        "related_room_id": "",
        "indoor": null,
        "type": "infrastructure",
        "name": "Wmsu Integrated School SHS building",
        "created_at": "2025-09-03T15:28:30.879Z",
        "related_infra_id": "INFA-21",
        "campus_id": "CAMP-02",
        "id": "kI3vno0vNnU8XnjDQjFy"
    },
{
        "node_id": "ND-019",
        "lng": "122.06342",
        "lat": "6.91285",
        "is_active": true,
        "related_room_id": "",
        "indoor": null,
        "type": "infrastructure",
        "name": "Wmsu Clinic Campus B",
        "created_at": "2025-09-03T15:26:38.297Z",
        "related_infra_id": "INFA-16",
        "campus_id": "CAMP-02",
        "id": "ktCYE6Cu180wtq2Og97B"
    },
{
        "node_id": "ND-013",
        "lng": "122.06315",
        "lat": "6.91280",
        "is_active": true,
        "related_room_id": "",
        "indoor": null,
        "type": "infrastructure",
        "name": "CCJE",
        "created_at": "2025-09-03T15:22:03.822Z",
        "related_infra_id": "INFA-10",
        "campus_id": "CAMP-02",
        "id": "lhRY7R5vmsD2yQfivGaf"
    },
{
        "node_id": "ND-023",
        "lng": "122.06341",
        "lat": "6.91325",
        "is_active": true,
        "related_room_id": "",
        "indoor": null,
        "type": "infrastructure",
        "name": "Campus B Canteen(Garments)",
        "created_at": "2025-09-03T15:28:07.724Z",
        "related_infra_id": "INFA-20",
        "campus_id": "CAMP-02",
        "id": "ngIAZQeLKD769nbDKdTI"
    },
{
        "node_id": "ND-027",
        "lng": "122.06213",
        "lat": "6.91298",
        "is_active": true,
        "related_room_id": "",
        "indoor": null,
        "type": "barrier",
        "name": "Barrier",
        "created_at": "2025-09-03T15:36:45.780Z",
        "related_infra_id": "INFA-28",
        "campus_id": "CAMP-02",
        "id": "oqKuraLy9IqfxIoQ7yKH"
    },
{
        "node_id": "ND-026",
        "lng": "122.06297",
        "lat": "6.91379",
        "is_active": true,
        "related_room_id": "",
        "indoor": null,
        "type": "barrier",
        "name": "Barrier",
        "created_at": "2025-09-03T15:35:48.375Z",
        "related_infra_id": "INFA-27",
        "campus_id": "CAMP-02",
        "id": "qrRSAKKwa7rgLxgsKwP1"
    },
{
        "node_id": "ND-010",
        "lng": "122.06289",
        "lat": "6.91284",
        "is_active": true,
        "related_room_id": "",
        "indoor": null,
        "type": "infrastructure",
        "name": "CSM Graduate Studies",
        "created_at": "2025-09-03T15:20:20.097Z",
        "related_infra_id": "INFA-07",
        "campus_id": "CAMP-02",
        "id": "rBdsHc9XvifARb242RSe"
    },
{
        "node_id": "ND-011",
        "lng": "122.06275",
        "lat": "6.91274",
        "is_active": true,
        "related_room_id": "",
        "indoor": null,
        "type": "infrastructure",
        "name": "CSM Office of the dean",
        "created_at": "2025-09-03T15:20:49.585Z",
        "related_infra_id": "INFA-08",
        "campus_id": "CAMP-02",
        "id": "vPkKebusRTDEq1k3RwRy"
    },
{
        "node_id": "ND-028",
        "lng": "122.06345",
        "lat": "6.91200",
        "is_active": true,
        "related_room_id": "",
        "indoor": null,
        "type": "barrier",
        "name": "Barrier",
        "created_at": "2025-09-03T15:37:44.357Z",
        "updated_at": "2025-09-03T15:43:56.471Z",
        "related_infra_id": "INFA-29",
        "campus_id": "CAMP-02",
        "id": "yULLTkiRZGriPkfGRkZW"
    },
{
        "node_id": "ND-014",
        "lng": "122.06288",
        "lat": "6.91264",
        "is_active": true,
        "related_room_id": "",
        "indoor": null,
        "type": "infrastructure",
        "name": "Department of Mathematics and statistics",
        "created_at": "2025-09-03T15:23:10.320Z",
        "related_infra_id": "INFA-11",
        "campus_id": "CAMP-02",
        "id": "yza7iSnKJLXVkVWy2IMC"
    }
]